{
    "id" : 0,
    "lat" : 43.5867374,
    "lng" : 7.1009044,
    "name" : "Maison"
  }, {
    "id" : 1,
    "lat" : "43.580418",
    "lng" : "7.125102",
    "name" : "Antibes"
  }, {
    "id" : 2,
    "lat" : "43.433152",
    "lng" : "6.737034",
    "name" : "Frejus"
  }, {
    "id" : 3,
    "lat" : "43.710172",
    "lng" : "7.261953",
    "name" : "Nice"
  }, {
    "id" : 4,
    "lat" : "43.552849",
    "lng" : "7.017369",
    "name" : "Cannes"
  }
